[
  {
    "lat": -34.50747,
    "lng": -58.48703,
    "name": "Arnaldo",
    "description": "No falla...",
    "type": "Baratas"
  },
  {
    "lat": -34.53258,
    "lng": -58.49078,
    "name": "Grido",
    "description": "No falla...",
    "type": "Baratas"
  },
  {
    "lat": -34.581198,
    "lng": -58.426298,
    "name": "Nicolo",
    "description": "No falla...",
    "type": "Baratas"
  },
  {
    "lat": -34.632713,
    "lng": -58.462814,
    "name": "Palmeiras",
    "description": "No falla...",
    "type": "Baratas"
  },
  {
    "lat": -34.603365,
    "lng": -58.377753,
    "name": "Vanshelado",
    "description": "No falla...",
    "type": "Baratas"
  },
  {
    "lat": -34.802574,
    "lng": -58.264084,
    "name": "Rapa Nui",
    "description": "Aboeee 多cobraste?",
    "type": "Chetas"
  },
  {
    "lat": -34.60424,
    "lng": -58.38772,
    "name": "Freddo",
    "description": "Aboeee 多cobraste?",
    "type": "Chetas"
  },
  {
    "lat": -34.589421,
    "lng": -58.429012,
    "name": "Luccianos",
    "description": "Aboeee 多cobraste?",
    "type": "Chetas"
  },

  {
    "lat": -34.61315,
    "lng": -58.37723,
    "name": "Volta",
    "description": "Aboeee 多cobraste?",
    "type": "Chetas"
  },
  {
    "lat": -34.594082,
    "lng": -58.392029,
    "name": "Valence Recoleta",
    "description": "Tiene opciones veganas evidentemente",
    "type": "Vegana"
  },

  {
    "lat": -34.577335,
    "lng": -58.430626,
    "name": "Veganius",
    "description": "Tiene opciones veganas evidentemente",
    "type": "Vegana"
  },
  {
    "lat": -34.583216,
    "lng": -58.430626,
    "name": "Chungo",
    "description": "Tiene opciones veganas evidentemente",
    "type": "Vegana"
  },
  {
    "lat": -34.595098,
    "lng": -58.404187,
    "name": "Helados Daniel",
    "description": "Mal ahi, por suerte aca tenes opciones sin Tacc",
    "type": "Sin Tacc"
  },
  {
    "lat": -34.525711,
    "lng": -58.483001,
    "name": "Cremolatti",
    "description": "Mal ahi, por suerte aca tenes opciones sin Tacc",
    "type": "Sin Tacc"
  },
  {
    "lat": -34.479322,
    "lng": -58.554215,
    "name": "Munchis",
    "description":"Mal ahi, por suerte aca tenes opciones sin Tacc",
    "type": "Sin Tacc"
  },

  {
    "lat": -34.589508,
    "lng": -58.429152,
    "name": "Persicco",
    "description": "Mal ahi, por suerte aca tenes opciones sin Tacc",
    "type": "Sin Tacc"
  },

  {
    "lat": -34.547766,
    "lng": -58.552059,
    "name": "Guapaletas",
    "description": "Mal ahi, por suerte aca tenes opciones sin Tacc",
    "type": "Sin Tacc"
  }
]




